{
"type": "FeatureCollection",
"name": "NAH-Österreich_clean",
"crs": { "type": "name", "properties": { "name": "urn:ogc:def:crs:OGC:1.3:CRS84" } },
"features": [
{ "type": "Feature", "properties": { "id": "way/320793561", "air_rescue_service": "aeromedical", "brand": "Martin Flugrettung", "emergency": "air_rescue_service", "icao": null, "name": "Martin Luftrettungsstation Mayrhofen", "opening_hours": "Jan-Apr sunrise-sunset; Dec sunrise-sunset", "operator": "Heli Austria GmbH", "short_name": "Martin 7" }, "geometry": { "type": "Point", "coordinates": [ 11.8667379, 47.1774931 ] } },
{ "type": "Feature", "properties": { "id": "way/344476330", "air_rescue_service": "aeromedical", "brand": null, "emergency": "air_rescue_service", "icao": null, "name": "ÖAMTC Luftrettungstation Ybbsitz", "opening_hours": "sunrise-sunset", "operator": "Christophorus Flugrettungsverein", "short_name": "C15" }, "geometry": { "type": "Point", "coordinates": [ 14.9396745, 47.9692399 ] } },
{ "type": "Feature", "properties": { "id": "way/346371263", "air_rescue_service": "aeromedical", "brand": "ÖAMTC Flugrettung", "emergency": "air_rescue_service", "icao": null, "name": "ÖAMTC Luftrettungstation Reith bei Kitzbühl", "opening_hours": "sunrise-sunset", "operator": "Christophorus Flugrettungsverein", "short_name": "Christophorus 4" }, "geometry": { "type": "Point", "coordinates": [ 12.3647936, 47.4886599 ] } },
{ "type": "Feature", "properties": { "id": "way/402250599", "air_rescue_service": "aeromedical", "brand": null, "emergency": "air_rescue_service", "icao": null, "name": "Bergrettung Vorarlberg / ÖAMTC Luftrettungstation Nenzing", "opening_hours": "sunrise-sunset", "operator": "Bergrettung Vorarlberg/Christophorus Flugrettungsverein", "short_name": "C8" }, "geometry": { "type": "Point", "coordinates": [ 9.6599692, 47.209002 ] } },
{ "type": "Feature", "properties": { "id": "way/607819442", "air_rescue_service": "aeromedical", "brand": null, "emergency": "air_rescue_service", "icao": "LOBF", "name": "ÖAMTC Luftrettungstation Wien-Erdberg", "opening_hours": "sunrise-sunset", "operator": "Christophorus Flugrettungsverein", "short_name": "C9" }, "geometry": { "type": "Point", "coordinates": [ 16.4124325, 48.1893018 ] } },
{ "type": "Feature", "properties": { "id": "way/991774062", "air_rescue_service": "aeromedical", "brand": null, "emergency": "air_rescue_service", "icao": null, "name": "Martin Luftrettungsstation Saalbach-Hinterglemm", "opening_hours": "Jan-Apr sunrise-sunset; Jun-Sep sunrise-sunset; Dec sunrise-sunset", "operator": "Heli Austria GmbH, Martin Flugrettung", "short_name": "Martin 6" }, "geometry": { "type": "Point", "coordinates": [ 12.5975819, 47.3659542 ] } },
{ "type": "Feature", "properties": { "id": "way/1126526494", "air_rescue_service": "aeromedical", "brand": "Martin Flugrettung", "emergency": "air_rescue_service", "icao": null, "name": "Martin Luftrettungstation Matrei in Osttirol", "opening_hours": "Jan-Apr sunrise-sunset; Dec sunrise-sunset", "operator": "Heli Austria GmbH", "short_name": "Martin 4" }, "geometry": { "type": "Point", "coordinates": [ 12.5415877, 46.9916782 ] } },
{ "type": "Feature", "properties": { "id": "way/1154999626", "air_rescue_service": "aeromedical", "brand": "Martin Flugrettung", "emergency": "air_rescue_service", "icao": null, "name": "Martin Luftrettungstation Karres", "opening_hours": "sunrise-sunset", "operator": "Heli Austria GmbH", "short_name": "Martin 2" }, "geometry": { "type": "Point", "coordinates": [ 10.7691577, 47.2189276 ] } },
{ "type": "Feature", "properties": { "id": "way/1155844024", "air_rescue_service": "aeromedical", "brand": null, "emergency": "air_rescue_service", "icao": null, "name": "ÖAMTC/ADAC Luftrettungstation Suben", "opening_hours": "06:00-20:00", "operator": "Christophorus Flugrettungsverein, ADAC Luftrettung", "short_name": "Europa 3" }, "geometry": { "type": "Point", "coordinates": [ 13.4495019, 48.4009882 ] } },
{ "type": "Feature", "properties": { "id": "way/1157463869", "air_rescue_service": "aeromedical", "brand": null, "emergency": "air_rescue_service", "icao": null, "name": "ÖAMTC Luftrettungstation Hörsching-Linz", "opening_hours": "sunrise-sunset", "operator": "Christophorus Flugrettungsverein", "short_name": "C10" }, "geometry": { "type": "Point", "coordinates": [ 14.1865143, 48.2390934 ] } },
{ "type": "Feature", "properties": { "id": "way/1157464881", "air_rescue_service": "aeromedical", "brand": null, "emergency": "air_rescue_service", "icao": null, "name": "Martin Luftrettungstation Scharnstein", "opening_hours": "sunrise-sunset", "operator": "Heli Austria GmbH, Martin Flugrettung", "short_name": "Martin 3" }, "geometry": { "type": "Point", "coordinates": [ 13.9394763, 47.8992811 ] } },
{ "type": "Feature", "properties": { "id": "way/1158037266", "air_rescue_service": "aeromedical", "brand": "ÖAMTC Flugrettung", "emergency": "air_rescue_service", "icao": null, "name": "ÖAMTC Luftrettungstation Innsbruck", "opening_hours": "sunrise-sunset", "operator": "Christophorus Flugrettungsverein", "short_name": "C1" }, "geometry": { "type": "Point", "coordinates": [ 11.3456186, 47.2553713 ] } },
{ "type": "Feature", "properties": { "id": "way/1180676625", "air_rescue_service": "aeromedical", "brand": null, "emergency": "air_rescue_service", "icao": null, "name": "ÖAMTC Luftrettungstation Oberwart", "opening_hours": "Mo-Su, PH 06:00-20:00", "operator": "Christophorus Flugrettungsverein", "short_name": "C16" }, "geometry": { "type": "Point", "coordinates": [ 16.1836694, 47.3053892 ] } },
{ "type": "Feature", "properties": { "id": "way/1180678617", "air_rescue_service": "aeromedical", "brand": null, "emergency": "air_rescue_service", "icao": null, "name": "ÖAMTC Luftrettungstation Krems", "opening_hours": "24/7", "operator": "Christophorus Flugrettungsverein", "short_name": "C2" }, "geometry": { "type": "Point", "coordinates": [ 15.6284526, 48.4463219 ] } },
{ "type": "Feature", "properties": { "id": "way/1180993285", "air_rescue_service": "aeromedical", "brand": "ÖAMTC Flugrettung", "emergency": "air_rescue_service", "icao": null, "name": "ÖAMTC Luftrettungstation Zams", "opening_hours": "sunrise-sunset", "operator": "Christophorus Flugrettungsverein", "short_name": "C5" }, "geometry": { "type": "Point", "coordinates": [ 10.6124575, 47.1765798 ] } },
{ "type": "Feature", "properties": { "id": "way/1180994284", "air_rescue_service": "aeromedical", "brand": null, "emergency": "air_rescue_service", "icao": null, "name": "ÖAMTC Luftrettungstation Salzburg", "opening_hours": "sunrise-sunset", "operator": "Christophorus Flugrettungsverein", "short_name": "C6" }, "geometry": { "type": "Point", "coordinates": [ 12.9974011, 47.7962361 ] } },
{ "type": "Feature", "properties": { "id": "way/1181452483", "air_rescue_service": "aeromedical", "brand": "ÖAMTC Flugrettung", "emergency": "air_rescue_service", "icao": null, "name": "ÖAMTC Luftrettungstation Lienz-Nikolsdorf", "opening_hours": "sunrise-sunset", "operator": "Christophorus Flugrettungsverein", "short_name": "C7" }, "geometry": { "type": "Point", "coordinates": [ 12.8769809, 46.7999193 ] } },
{ "type": "Feature", "properties": { "id": "way/1181455029", "air_rescue_service": "aeromedical", "brand": null, "emergency": "air_rescue_service", "icao": null, "name": "ÖAMTC Luftrettungstation Klagenfurt", "opening_hours": "sunrise-sunset", "operator": "Christophorus Flugrettungsverein", "short_name": "C11" }, "geometry": { "type": "Point", "coordinates": [ 14.3335472, 46.6459192 ] } },
{ "type": "Feature", "properties": { "id": "way/1181455657", "air_rescue_service": "aeromedical", "brand": null, "emergency": "air_rescue_service", "icao": null, "name": "ÖAMTC Luftrettungstation Feldkirchen bei Graz", "opening_hours": "sunrise-sunset", "operator": "Christophorus Flugrettungsverein", "short_name": "C12" }, "geometry": { "type": "Point", "coordinates": [ 15.446636, 46.984967 ] } },
{ "type": "Feature", "properties": { "id": "way/1181460038", "air_rescue_service": "aeromedical", "brand": null, "emergency": "air_rescue_service", "icao": null, "name": "ÖAMTC Luftrettungstation St. Michael in der Obersteiermark", "opening_hours": "24/7", "operator": "Christophorus Flugrettungsverein", "short_name": "C17" }, "geometry": { "type": "Point", "coordinates": [ 15.0014968, 47.3361032 ] } },
{ "type": "Feature", "properties": { "id": "way/1181465733", "air_rescue_service": "aeromedical", "brand": "ARA Flugrettung", "emergency": "air_rescue_service", "icao": null, "name": "ARA Luftrettungstation Fresach", "opening_hours": "sunrise-sunset", "operator": "ARA Flugrettung gGmbH", "short_name": "RK-1" }, "geometry": { "type": "Point", "coordinates": [ 13.6649542, 46.7411195 ] } },
{ "type": "Feature", "properties": { "id": "way/1181466021", "air_rescue_service": "aeromedical", "brand": "ARA Flugrettung", "emergency": "air_rescue_service", "icao": null, "name": "ARA Luftrettungstation Ehenbichl/Reutte", "opening_hours": "sunrise-sunset", "operator": "ARA Flugrettung gGmbH", "short_name": "RK-2" }, "geometry": { "type": "Point", "coordinates": [ 10.7110523, 47.473295 ] } },
{ "type": "Feature", "properties": { "id": "way/1181467728", "air_rescue_service": "aeromedical", "brand": "ARA Flugrettung", "emergency": "air_rescue_service", "icao": null, "name": "ARA Luftrettungstation Hermagor", "opening_hours": "Dec-Apr sunrise-sunset", "operator": "ARA Flugrettung gGmbH", "short_name": "ARA-3" }, "geometry": { "type": "Point", "coordinates": [ 13.2739954, 46.5688788 ] } },
{ "type": "Feature", "properties": { "id": "way/1181471523", "air_rescue_service": "aeromedical", "brand": "Wucher Helicopter", "emergency": "air_rescue_service", "icao": null, "name": "Wucher Luftrettungstation St. Anton am Arlberg", "opening_hours": "Dec-Apr sunrise-sunset", "operator": "Wucher Helicopter GmbH", "short_name": "Gallus 3" }, "geometry": { "type": "Point", "coordinates": [ 10.2402976, 47.1194645 ] } },
{ "type": "Feature", "properties": { "id": "way/1181473110", "air_rescue_service": "aeromedical", "brand": null, "emergency": "air_rescue_service", "icao": null, "name": "SHS/ÖAMTC Luftrettungstation Zell am See", "opening_hours": "sunrise-sunset", "operator": "SHS – Helicopter Transporte GmbH / Christophorus Flugrettungsverein", "short_name": "Alpin Heli 6" }, "geometry": { "type": "Point", "coordinates": [ 12.785896, 47.2923425 ] } },
{ "type": "Feature", "properties": { "id": "way/1181473718", "air_rescue_service": "aeromedical", "brand": "SHS – Schider Helicopter Service", "emergency": "air_rescue_service", "icao": null, "name": "SHS Luftrettungsstation Waidring", "opening_hours": "Dec, Jan-Apr sunrise-sunset", "operator": "SHS – Schider Helicopter Service GmbH", "short_name": "Heli 1" }, "geometry": { "type": "Point", "coordinates": [ 12.5924257, 47.5851685 ] } },
{ "type": "Feature", "properties": { "id": "way/1181475241", "air_rescue_service": "aeromedical", "brand": "SHS – Schider Helicopter Service", "emergency": "air_rescue_service", "icao": null, "name": "SHS Luftrettungsstation Langkampfen", "opening_hours": "sunrise-sunset", "operator": "SHS – Schider Helicopter Service GmbH", "short_name": "Heli 3" }, "geometry": { "type": "Point", "coordinates": [ 12.1349579, 47.5656443 ] } },
{ "type": "Feature", "properties": { "id": "way/1181475833", "air_rescue_service": "aeromedical", "brand": "SHS – Schider Helicopter Service", "emergency": "air_rescue_service", "icao": null, "name": "SHS Luftrettungstation Kaltenbach", "opening_hours": "sunrise-sunset", "operator": "SHS – Schider Helicopter Service GmbH", "short_name": "Heli 4" }, "geometry": { "type": "Point", "coordinates": [ 11.8798096, 47.2848357 ] } },
{ "type": "Feature", "properties": { "id": "way/1181478935", "air_rescue_service": "aeromedical", "brand": null, "emergency": "air_rescue_service", "icao": null, "name": "Schenk Luftrettungstation Ischgl Idalpe", "opening_hours": "Dec-Apr sunrise-sunset", "operator": "SchenkAir GmbH", "short_name": "Robin 3" }, "geometry": { "type": "Point", "coordinates": [ 10.3161653, 46.9805255 ] } },
{ "type": "Feature", "properties": { "id": "way/1181770150", "air_rescue_service": "aeromedical", "brand": "Wucher Helicopter", "emergency": "air_rescue_service", "icao": null, "name": "Bergrettung Vorarlberg Luftrettungstation Zürs", "opening_hours": "Dec-Apr sunrise-sunset; Jul-Oct sunrise-sunset", "operator": "Bergrettung Vorarlberg", "short_name": "Gallus 1" }, "geometry": { "type": "Point", "coordinates": [ 10.1573685, 47.1842752 ] } },
{ "type": "Feature", "properties": { "id": "way/1181771783", "air_rescue_service": "aeromedical", "brand": null, "emergency": "air_rescue_service", "icao": null, "name": "Bergrettung Vorarlberg Luftrettungstation Ludesch", "opening_hours": "Dec-Apr sunrise-sunset", "operator": "Bergrettung Vorarlberg", "short_name": "Gallus 2" }, "geometry": { "type": "Point", "coordinates": [ 9.7804247, 47.2006571 ] } },
{ "type": "Feature", "properties": { "id": "way/1182352099", "air_rescue_service": "aeromedical", "brand": "Martin Flugrettung", "emergency": "air_rescue_service", "icao": null, "name": "Martin Luftrettungsstation Sölden", "opening_hours": "Dec-Apr sunrise-sunset; Jun-Sep sunrise-sunset", "operator": "Heli Austria GmbH", "short_name": "Martin 8" }, "geometry": { "type": "Point", "coordinates": [ 11.0538586, 46.9112922 ] } },
{ "type": "Feature", "properties": { "id": "way/1184185997", "air_rescue_service": "aeromedical", "brand": null, "emergency": "air_rescue_service", "icao": null, "name": "ÖAMTC Luftrettungstation Patergassen", "opening_hours": "Jan-Apr sunrise-sunset; Dec sunrise-sunset", "operator": "Christophorus Flugrettungsverein", "short_name": "Alpin 1" }, "geometry": { "type": "Point", "coordinates": [ 13.8568069, 46.8191854 ] } },
{ "type": "Feature", "properties": { "id": "way/1331396781", "air_rescue_service": "aeromedical", "brand": null, "emergency": "air_rescue_service", "icao": null, "name": "ÖAMTC Flugrettungsstützpunkt Frauenkirchen", "opening_hours": "sunrise-sunset", "operator": "Christophorus Flugrettungsverein", "short_name": "C18" }, "geometry": { "type": "Point", "coordinates": [ 16.9391485, 47.8570734 ] } },
{ "type": "Feature", "properties": { "id": "way/1338545749", "air_rescue_service": "aeromedical", "brand": "ÖAMTC Flugrettung", "emergency": "air_rescue_service", "icao": null, "name": "ÖAMTC Luftrettungsstation Hintertux", "opening_hours": "Dec-Apr sunrise-sunset", "operator": "Christophorus Flugrettungsverein", "short_name": "Alpin 5" }, "geometry": { "type": "Point", "coordinates": [ 11.7038168, 47.133657 ] } },
{ "type": "Feature", "properties": { "id": "way/1338545750", "air_rescue_service": "aeromedical", "brand": "ÖAMTC Flugrettung", "emergency": "air_rescue_service", "icao": null, "name": "ÖAMTC Luftrettungstation Sölden", "opening_hours": "Dec-Apr sunrise-sunset", "operator": "Christophorus Flugrettungsverein", "short_name": "Alpin 2" }, "geometry": { "type": "Point", "coordinates": [ 11.0185571, 46.9465024 ] } },
{ "type": "Feature", "properties": { "id": "node/10971958955", "air_rescue_service": "aeromedical", "brand": null, "emergency": "air_rescue_service", "icao": null, "name": "ARA Luftrettungstation Schruns", "opening_hours": "Dec-Apr sunrise-sunset", "operator": "SchenkAir GmbH", "short_name": "Robin 1" }, "geometry": { "type": "Point", "coordinates": [ 9.9133058, 47.0738148 ] } },
{ "type": "Feature", "properties": { "id": "node/10971852773", "air_rescue_service": "aeromedical", "brand": null, "emergency": "air_rescue_service", "icao": null, "name": "ÖAMTC Luftrettunsstation Niederöblarn", "opening_hours": "24/7", "operator": "Christophorus Flugrettungsverein", "short_name": "C14 / C99" }, "geometry": { "type": "Point", "coordinates": [ 14.0096935, 47.4797652 ] } },
{ "type": "Feature", "properties": { "id": "node/10971899524", "air_rescue_service": "aeromedical", "brand": null, "emergency": "air_rescue_service", "icao": null, "name": "ÖAMTC Luftrettungsstation Wiener Neustadt", "opening_hours": "sunrise-sunset", "operator": "Christophorus Flugrettungsverein", "short_name": "C3 / C33" }, "geometry": { "type": "Point", "coordinates": [ 16.2514248, 47.8453833 ] } },
{ "type": "Feature", "properties": { "id": "node/7773948258", "air_rescue_service": "aeromedical", "brand": null, "emergency": "air_rescue_service", "icao": null, "name": "Martin Luftrettungstation Sankt Johann im Pongau", "opening_hours": "sunrise-sunset", "operator": "Heli Austria GmbH, Martin Flugrettung", "short_name": "Martin 1 / Martin 10" }, "geometry": { "type": "Point", "coordinates": [ 13.2216904, 47.393657 ] } }
]
}
