{
"type": "FeatureCollection",
"name": "BRD-OOE",
"crs": { "type": "name", "properties": { "name": "urn:ogc:def:crs:OGC:1.3:CRS84" } },
"features": [
{ "type": "Feature", "properties": { "id": "node/1979125147", "addr:city": null, "addr:housenumber": null, "addr:postcode": null, "addr:street": null, "ambulance_station:patient_transport": null, "emergency": "mountain_rescue", "name": "Bergrettung Vorderstoder", "operator": "Bergrettung Oberösterreich", "brand:short": "BRD" }, "geometry": { "type": "Point", "coordinates": [ 14.2244797, 47.7128944 ] } },
{ "type": "Feature", "properties": { "id": "node/6497010039", "addr:city": "Obertraun", "addr:housenumber": "310", "addr:postcode": "4831", "addr:street": "Obertraun", "ambulance_station:patient_transport": null, "emergency": "mountain_rescue", "name": "Bergrettung Obertraun", "operator": "Bergrettung Oberösterreich", "brand:short": "BRD" }, "geometry": { "type": "Point", "coordinates": [ 13.6925241, 47.5558027 ] } },
{ "type": "Feature", "properties": { "id": "node/6655811247", "addr:city": "Steinbach am Attersee", "addr:housenumber": "5", "addr:postcode": "4853", "addr:street": "Steinbach", "ambulance_station:patient_transport": null, "emergency": "mountain_rescue", "name": "Bergrettung Steinbach", "operator": "Bergrettung Oberösterreich", "brand:short": "BRD" }, "geometry": { "type": "Point", "coordinates": [ 13.5495017, 47.8306919 ] } },
{ "type": "Feature", "properties": { "id": "node/8360525466", "addr:city": "Ebensee am Traunsee", "addr:housenumber": "5", "addr:postcode": "4802", "addr:street": "Salinenplatz", "ambulance_station:patient_transport": null, "emergency": "mountain_rescue", "name": "Bergrettung Ebensee", "operator": "Bergrettung Oberösterreich", "brand:short": "BRD" }, "geometry": { "type": "Point", "coordinates": [ 13.7752388, 47.8114906 ] } },
{ "type": "Feature", "properties": { "id": "node/11317198465", "addr:city": null, "addr:housenumber": null, "addr:postcode": null, "addr:street": null, "ambulance_station:patient_transport": null, "emergency": "mountain_rescue", "name": "Bergrettung Losenstein", "operator": "Bergrettung Oberösterreich", "brand:short": "BRD" }, "geometry": { "type": "Point", "coordinates": [ 14.4369474, 47.9231953 ] } },
{ "type": "Feature", "properties": { "id": "node/13045243272", "addr:city": "Spital am Pyhrn", "addr:housenumber": "3", "addr:postcode": "4582", "addr:street": "Pyhrnpass Straße", "ambulance_station:patient_transport": null, "emergency": "mountain_rescue", "name": "Bergrettung Spital am Pyhrn", "operator": "Bergrettung Oberösterreich", "brand:short": "BRD" }, "geometry": { "type": "Point", "coordinates": [ 14.340059, 47.6629479 ] } },
{ "type": "Feature", "properties": { "id": "node/13197914924", "addr:city": "Bad Goisern am Hallstättersee", "addr:housenumber": "2a", "addr:postcode": "4822", "addr:street": "Hofrat-Renner-Weg", "ambulance_station:patient_transport": null, "emergency": "mountain_rescue", "name": "Bergrettung Bad Goisern", "operator": "Bergrettung Oberösterreich", "brand:short": "BRD" }, "geometry": { "type": "Point", "coordinates": [ 13.6210487, 47.6417609 ] } },
{ "type": "Feature", "properties": { "id": "node/13198087120", "addr:city": "Bad Ischl", "addr:housenumber": "71b", "addr:postcode": "4820", "addr:street": "Grazer Straße", "ambulance_station:patient_transport": null, "emergency": "mountain_rescue", "name": "Bergrettung Bad Ischl", "operator": "Bergrettung Oberösterreich", "brand:short": "BRD" }, "geometry": { "type": "Point", "coordinates": [ 13.625624, 47.6999963 ] } },
{ "type": "Feature", "properties": { "id": "node/13198087131", "addr:city": "Hallstatt", "addr:housenumber": "216", "addr:postcode": "4830", "addr:street": "Malerweg", "ambulance_station:patient_transport": null, "emergency": "mountain_rescue", "name": "Bergrettung Hallstatt", "operator": "Bergrettung Oberösterreich", "brand:short": "BRD" }, "geometry": { "type": "Point", "coordinates": [ 13.6391631, 47.5507348 ] } },
{ "type": "Feature", "properties": { "id": "node/13198087132", "addr:city": "Hinterstoder", "addr:housenumber": "29", "addr:postcode": "4573", "addr:street": "Hinterstoder", "ambulance_station:patient_transport": null, "emergency": "mountain_rescue", "name": "Bergrettung Hinterstoder", "operator": "Bergrettung Oberösterreich", "brand:short": "BRD" }, "geometry": { "type": "Point", "coordinates": [ 14.1539151, 47.7003101 ] } },
{ "type": "Feature", "properties": { "id": "node/13198087137", "addr:city": "Ulrichsberg", "addr:housenumber": "1", "addr:postcode": "4161", "addr:street": "Dreisesselbergstraße", "ambulance_station:patient_transport": null, "emergency": "mountain_rescue", "name": "Bergrettung Böhmerwald", "operator": "Bergrettung Oberösterreich", "brand:short": "BRD" }, "geometry": { "type": "Point", "coordinates": [ 13.9187295, 48.6750049 ] } },
{ "type": "Feature", "properties": { "id": "way/90522189", "addr:city": "Linz", "addr:housenumber": "50", "addr:postcode": "4040", "addr:street": "Samhaberstraße", "ambulance_station:patient_transport": null, "emergency": "mountain_rescue", "name": "Bergrettung Linz", "operator": "Bergrettung Oberösterreich", "brand:short": "BRD" }, "geometry": { "type": "Point", "coordinates": [ 14.259975623310501, 48.325233511748024 ] } },
{ "type": "Feature", "properties": { "id": "way/116725228", "addr:city": "Windischgarsten", "addr:housenumber": "20", "addr:postcode": "4580", "addr:street": "Salzastraße", "ambulance_station:patient_transport": null, "emergency": "mountain_rescue", "name": "Bergrettung Windischgarsten", "operator": "Bergrettung Oberösterreich", "brand:short": "BRD" }, "geometry": { "type": "Point", "coordinates": [ 14.324736598906696, 47.726615413034132 ] } },
{ "type": "Feature", "properties": { "id": "way/154636263", "addr:city": "Spital am Pyhrn", "addr:housenumber": "3", "addr:postcode": "4582", "addr:street": "Pyhrnstraße", "ambulance_station:patient_transport": "", "emergency": "mountain_rescue", "name": "Bergrettung Spital am Pyhrn", "operator": "Bergrettung Oberösterreich", "brand:short": "BRD" }, "geometry": { "type": "Point", "coordinates": [ 14.340040099065954, 47.662809434299326 ] } },
{ "type": "Feature", "properties": { "id": "way/163712859", "addr:city": "Klaus an der Pyhrnbahn", "addr:housenumber": "71", "addr:postcode": "4571", "addr:street": null, "ambulance_station:patient_transport": null, "emergency": "mountain_rescue", "name": "Bergrettung Steyrling", "operator": "Bergrettung Oberösterreich", "brand:short": "BRD" }, "geometry": { "type": "Point", "coordinates": [ 14.132897559053351, 47.805570525263612 ] } },
{ "type": "Feature", "properties": { "id": "way/189658765", "addr:city": "Gmunden", "addr:housenumber": "313", "addr:postcode": "4810", "addr:street": "Traunsteinstraße", "ambulance_station:patient_transport": null, "emergency": "mountain_rescue", "name": "Bergrettung Gmunden", "operator": "Bergrettung Oberösterreich", "brand:short": "BRD" }, "geometry": { "type": "Point", "coordinates": [ 13.814343936585159, 47.87551544450465 ] } },
{ "type": "Feature", "properties": { "id": "way/201280181", "addr:city": "Gosau", "addr:housenumber": "2", "addr:postcode": "4824", "addr:street": "Holzmeisterweg", "ambulance_station:patient_transport": null, "emergency": "mountain_rescue", "name": "Bergrettung Gosau", "operator": "Bergrettung Oberösterreich", "brand:short": "BRD" }, "geometry": { "type": "Point", "coordinates": [ 13.528404868751373, 47.577479184237873 ] } },
{ "type": "Feature", "properties": { "id": "way/237068660", "addr:city": "Steinbach an der Steyr", "addr:housenumber": "12", "addr:postcode": "4594", "addr:street": "Schulstraße", "ambulance_station:patient_transport": null, "emergency": "mountain_rescue", "name": "Bergrettung Grünburg Steinbach", "operator": "Bergrettung Oberösterreich", "brand:short": "BRD" }, "geometry": { "type": "Point", "coordinates": [ 14.263629036669593, 47.967706217037097 ] } },
{ "type": "Feature", "properties": { "id": "way/459183946", "addr:city": "Traunkirchen", "addr:housenumber": "14", "addr:postcode": "4801", "addr:street": "Mitterndorf", "ambulance_station:patient_transport": null, "emergency": "mountain_rescue", "name": "Bergrettung Traunkirchen", "operator": "Bergrettung Oberösterreich", "brand:short": "BRD" }, "geometry": { "type": "Point", "coordinates": [ 13.776655488306307, 47.853760260492926 ] } },
{ "type": "Feature", "properties": { "id": "way/871110779", "addr:city": "Molln", "addr:housenumber": "6a", "addr:postcode": "4591", "addr:street": "Hafnerstraße", "ambulance_station:patient_transport": null, "emergency": "mountain_rescue", "name": "Bergrettung Molln", "operator": "Bergrettung Oberösterreich", "brand:short": "BRD" }, "geometry": { "type": "Point", "coordinates": [ 14.260285226493991, 47.887999009566428 ] } },
{ "type": "Feature", "properties": { "id": "way/1046170658", "addr:city": "Micheldorf in Oberösterreich", "addr:housenumber": "5", "addr:postcode": "4563", "addr:street": "In der Krems", "ambulance_station:patient_transport": null, "emergency": "mountain_rescue", "name": "Bergrettung Kremstal", "operator": "Bergrettung Oberösterreich", "brand:short": "BRD" }, "geometry": { "type": "Point", "coordinates": [ 14.131491783197886, 47.863239443694169 ] } },
{ "type": "Feature", "properties": { "id": "way/1435937767", "addr:city": "Grünau im Almtal", "addr:housenumber": "15", "addr:postcode": "4645", "addr:street": "Pfarrwiese", "ambulance_station:patient_transport": null, "emergency": "mountain_rescue", "name": "Bergrettung Grünau im Almtal", "operator": "Bergrettung Oberösterreich", "brand:short": "BRD" }, "geometry": { "type": "Point", "coordinates": [ 13.956784012877751, 47.855215101409982 ] } },
{ "type": "Feature", "properties": { "id": "way/1435937768", "addr:city": "St. Lorenz", "addr:housenumber": "17b", "addr:postcode": "5310", "addr:street": null, "ambulance_station:patient_transport": null, "emergency": "mountain_rescue", "name": "Bergrettung Mondseeland", "operator": "Bergrettung Oberösterreich", "brand:short": "BRD" }, "geometry": { "type": "Point", "coordinates": [ 13.354946250615882, 47.823481346374145 ] } }
]
}
